{
    "provinces": {
        "Ciudad de Buenos Aires": {
            "cantidad": 15,
            "departamentos": [
                {
                    "centroide_lat": -34.6064218855511,
                    "centroide_lon": -58.3715396530269,
                    "id": "02007",
                    "nombre": "Comuna 1",
                    "provincia_id": "02",
                    "provincia_nombre": "Ciudad Autónoma de Buenos Aires"
                },
                {
                    "centroide_lat": -34.6278516942726,
                    "centroide_lon": -58.5028179980211,
                    "id": "02070",
                    "nombre": "Comuna 10",
                    "provincia_id": "02",
                    "provincia_nombre": "Ciudad Autónoma de Buenos Aires"
                },
                {
                    "centroide_lat": -34.6061369839531,
                    "centroide_lon": -58.4967418386195,
                    "id": "02077",
                    "nombre": "Comuna 11",
                    "provincia_id": "02",
                    "provincia_nombre": "Ciudad Autónoma de Buenos Aires"
                },
                {
                    "centroide_lat": -34.5662276065396,
                    "centroide_lon": -58.490428041078,
                    "id": "02084",
                    "nombre": "Comuna 12",
                    "provincia_id": "02",
                    "provincia_nombre": "Ciudad Autónoma de Buenos Aires"
                },
                {
                    "centroide_lat": -34.5542357921934,
                    "centroide_lon": -58.4540058768299,
                    "id": "02091",
                    "nombre": "Comuna 13",
                    "provincia_id": "02",
                    "provincia_nombre": "Ciudad Autónoma de Buenos Aires"
                },
                {
                    "centroide_lat": -34.5738372943158,
                    "centroide_lon": -58.4222211632133,
                    "id": "02098",
                    "nombre": "Comuna 14",
                    "provincia_id": "02",
                    "provincia_nombre": "Ciudad Autónoma de Buenos Aires"
                },
                {
                    "centroide_lat": -34.5918836701565,
                    "centroide_lon": -58.4627740218828,
                    "id": "02105",
                    "nombre": "Comuna 15",
                    "provincia_id": "02",
                    "provincia_nombre": "Ciudad Autónoma de Buenos Aires"
                },
                {
                    "centroide_lat": -34.5857649937965,
                    "centroide_lon": -58.3948918118195,
                    "id": "02014",
                    "nombre": "Comuna 2",
                    "provincia_id": "02",
                    "provincia_nombre": "Ciudad Autónoma de Buenos Aires"
                },
                {
                    "centroide_lat": -34.6138430816863,
                    "centroide_lon": -58.4026514512217,
                    "id": "02021",
                    "nombre": "Comuna 3",
                    "provincia_id": "02",
                    "provincia_nombre": "Ciudad Autónoma de Buenos Aires"
                },
                {
                    "centroide_lat": -34.6420794257822,
                    "centroide_lon": -58.3874550689885,
                    "id": "02028",
                    "nombre": "Comuna 4",
                    "provincia_id": "02",
                    "provincia_nombre": "Ciudad Autónoma de Buenos Aires"
                },
                {
                    "centroide_lat": -34.617369923785,
                    "centroide_lon": -58.4205721902857,
                    "id": "02035",
                    "nombre": "Comuna 5",
                    "provincia_id": "02",
                    "provincia_nombre": "Ciudad Autónoma de Buenos Aires"
                },
                {
                    "centroide_lat": -34.6168433901108,
                    "centroide_lon": -58.4435682280605,
                    "id": "02042",
                    "nombre": "Comuna 6",
                    "provincia_id": "02",
                    "provincia_nombre": "Ciudad Autónoma de Buenos Aires"
                },
                {
                    "centroide_lat": -34.6365544143719,
                    "centroide_lon": -58.4518868569844,
                    "id": "02049",
                    "nombre": "Comuna 7",
                    "provincia_id": "02",
                    "provincia_nombre": "Ciudad Autónoma de Buenos Aires"
                },
                {
                    "centroide_lat": -34.6745676187442,
                    "centroide_lon": -58.461944281059,
                    "id": "02056",
                    "nombre": "Comuna 8",
                    "provincia_id": "02",
                    "provincia_nombre": "Ciudad Autónoma de Buenos Aires"
                },
                {
                    "centroide_lat": -34.6517602348111,
                    "centroide_lon": -58.4991151516538,
                    "id": "02063",
                    "nombre": "Comuna 9",
                    "provincia_id": "02",
                    "provincia_nombre": "Ciudad Autónoma de Buenos Aires"
                }
            ],
            "inicio": 0,
            "parametros": {
                "aplanar": true,
                "campos": [
                    "centroide.lon",
                    "id",
                    "provincia.nombre",
                    "nombre",
                    "provincia.id",
                    "centroide.lat"
                ],
                "exacto": true,
                "max": 100,
                "orden": "nombre",
                "provincia": "Ciudad Autonoma de Buenos Aires"
            },
            "total": 15
        },
        "Buenos Aires": {
            "cantidad": 135,
            "departamentos": [
                {
                    "centroide_lat": -35.5265113228112,
                    "centroide_lon": -60.2301576569223,
                    "id": "06854",
                    "nombre": "25 de Mayo",
                    "provincia_id": "06",
                    "provincia_nombre": "Buenos Aires"
                },
                {
                    "centroide_lat": -35.481190578256,
                    "centroide_lon": -60.9751157295027,
                    "id": "06588",
                    "nombre": "9 de Julio",
                    "provincia_id": "06",
                    "provincia_nombre": "Buenos Aires"
                },
                {
                    "centroide_lat": -37.1963357906582,
                    "centroide_lon": -63.0560072843652,
                    "id": "06007",
                    "nombre": "Adolfo Alsina",
                    "provincia_id": "06",
                    "provincia_nombre": "Buenos Aires"
                },
                {
                    "centroide_lat": -37.9642254145303,
                    "centroide_lon": -60.2490776485677,
                    "id": "06014",
                    "nombre": "Adolfo Gonzales Chaves",
                    "provincia_id": "06",
                    "provincia_nombre": "Buenos Aires"
                },
                {
                    "centroide_lat": -35.0363817959326,
                    "centroide_lon": -60.2828693081193,
                    "id": "06021",
                    "nombre": "Alberti",
                    "provincia_id": "06",
                    "provincia_nombre": "Buenos Aires"
                },
                {
                    "centroide_lat": -34.8355700988623,
                    "centroide_lon": -58.3673978494737,
                    "id": "06028",
                    "nombre": "Almirante Brown",
                    "provincia_id": "06",
                    "provincia_nombre": "Buenos Aires"
                },
                {
                    "centroide_lat": -34.0113151746224,
                    "centroide_lon": -60.0627625274553,
                    "id": "06077",
                    "nombre": "Arrecifes",
                    "provincia_id": "06",
                    "provincia_nombre": "Buenos Aires"
                },
                {
                    "centroide_lat": -34.6782056572194,
                    "centroide_lon": -58.341116892125,
                    "id": "06035",
                    "nombre": "Avellaneda",
                    "provincia_id": "06",
                    "provincia_nombre": "Buenos Aires"
                },
                {
                    "centroide_lat": -37.0347821696395,
                    "centroide_lon": -58.442581327328,
                    "id": "06042",
                    "nombre": "Ayacucho",
                    "provincia_id": "06",
                    "provincia_nombre": "Buenos Aires"
                },
                {
                    "centroide_lat": -36.7857719233293,
                    "centroide_lon": -59.69665215894,
                    "id": "06049",
                    "nombre": "Azul",
                    "provincia_id": "06",
                    "provincia_nombre": "Buenos Aires"
                },
                {
                    "centroide_lat": -38.5808546732895,
                    "centroide_lon": -62.1656895327094,
                    "id": "06056",
                    "nombre": "Bahía Blanca",
                    "provincia_id": "06",
                    "provincia_nombre": "Buenos Aires"
                },
                {
                    "centroide_lat": -37.7142728188627,
                    "centroide_lon": -58.2720776945726,
                    "id": "06063",
                    "nombre": "Balcarce",
                    "provincia_id": "06",
                    "provincia_nombre": "Buenos Aires"
                },
                {
                    "centroide_lat": -33.9321914567436,
                    "centroide_lon": -59.4929504876902,
                    "id": "06070",
                    "nombre": "Baradero",
                    "provincia_id": "06",
                    "provincia_nombre": "Buenos Aires"
                },
                {
                    "centroide_lat": -37.585278315595,
                    "centroide_lon": -59.8883008698795,
                    "id": "06084",
                    "nombre": "Benito Juárez",
                    "provincia_id": "06",
                    "provincia_nombre": "Buenos Aires"
                },
                {
                    "centroide_lat": -34.8179736855733,
                    "centroide_lon": -58.1552626920478,
                    "id": "06091",
                    "nombre": "Berazategui",
                    "provincia_id": "06",
                    "provincia_nombre": "Buenos Aires"
                },
                {
                    "centroide_lat": -34.909463480255,
                    "centroide_lon": -57.8283887071779,
                    "id": "06098",
                    "nombre": "Berisso",
                    "provincia_id": "06",
                    "provincia_nombre": "Buenos Aires"
                },
                {
                    "centroide_lat": -36.2982217499893,
                    "centroide_lon": -61.1496836148108,
                    "id": "06105",
                    "nombre": "Bolívar",
                    "provincia_id": "06",
                    "provincia_nombre": "Buenos Aires"
                },
                {
                    "centroide_lat": -35.0610928531071,
                    "centroide_lon": -60.6042295511118,
                    "id": "06112",
                    "nombre": "Bragado",
                    "provincia_id": "06",
                    "provincia_nombre": "Buenos Aires"
                },
                {
                    "centroide_lat": -35.2221104711751,
                    "centroide_lon": -58.1760719473086,
                    "id": "06119",
                    "nombre": "Brandsen",
                    "provincia_id": "06",
                    "provincia_nombre": "Buenos Aires"
                },
                {
                    "centroide_lat": -34.1381957287934,
                    "centroide_lon": -58.8830222693056,
                    "id": "06126",
                    "nombre": "Campana",
                    "provincia_id": "06",
                    "provincia_nombre": "Buenos Aires"
                },
                {
                    "centroide_lat": -35.1450252367714,
                    "centroide_lon": -58.6907790273655,
                    "id": "06134",
                    "nombre": "Cañuelas",
                    "provincia_id": "06",
                    "provincia_nombre": "Buenos Aires"
                },
                {
                    "centroide_lat": -34.1497065018665,
                    "centroide_lon": -59.8548037960898,
                    "id": "06140",
                    "nombre": "Capitán Sarmiento",
                    "provincia_id": "06",
                    "provincia_nombre": "Buenos Aires"
                },
                {
                    "centroide_lat": -35.7496551260772,
                    "centroide_lon": -61.3737522686863,
                    "id": "06147",
                    "nombre": "Carlos Casares",
                    "provincia_id": "06",
                    "provincia_nombre": "Buenos Aires"
                },
                {
                    "centroide_lat": -35.379488920773,
                    "centroide_lon": -62.4295611893429,
                    "id": "06154",
                    "nombre": "Carlos Tejedor",
                    "provincia_id": "06",
                    "provincia_nombre": "Buenos Aires"
                },
                {
                    "centroide_lat": -34.4067983092213,
                    "centroide_lon": -59.8842434040917,
                    "id": "06161",
                    "nombre": "Carmen de Areco",
                    "provincia_id": "06",
                    "provincia_nombre": "Buenos Aires"
                },
                {
                    "centroide_lat": -36.041669400313,
                    "centroide_lon": -57.6570625692977,
                    "id": "06168",
                    "nombre": "Castelli",
                    "provincia_id": "06",
                    "provincia_nombre": "Buenos Aires"
                },
                {
                    "centroide_lat": -34.6184039263126,
                    "centroide_lon": -60.3539279007252,
                    "id": "06210",
                    "nombre": "Chacabuco",
                    "provincia_id": "06",
                    "provincia_nombre": "Buenos Aires"
                },
                {
                    "centroide_lat": -35.6187689428966,
                    "centroide_lon": -57.9043202817554,
                    "id": "06217",
                    "nombre": "Chascomús",
                    "provincia_id": "06",
                    "provincia_nombre": "Buenos Aires"
                },
                {
                    "centroide_lat": -34.9157089757004,
                    "centroide_lon": -59.9584822196811,
                    "id": "06224",
                    "nombre": "Chivilcoy",
                    "provincia_id": "06",
                    "provincia_nombre": "Buenos Aires"
                },
                {
                    "centroide_lat": -34.5526490761118,
                    "centroide_lon": -58.5643145358763,
                    "id": "06371",
                    "nombre": "Ciudad Libertador San Martín",
                    "provincia_id": "06",
                    "provincia_nombre": "Buenos Aires"
                },
                {
                    "centroide_lat": -33.8860220920375,
                    "centroide_lon": -61.0633674925405,
                    "id": "06175",
                    "nombre": "Colón",
                    "provincia_id": "06",
                    "provincia_nombre": "Buenos Aires"
                },
                {
                    "centroide_lat": -38.8488346485235,
                    "centroide_lon": -61.8360446581448,
                    "id": "06182",
                    "nombre": "Coronel de Marina Leonardo Rosales",
                    "provincia_id": "06",
                    "provincia_nombre": "Buenos Aires"
                },
                {
                    "centroide_lat": -38.6704811465081,
                    "centroide_lon": -61.0956539726773,
                    "id": "06189",
                    "nombre": "Coronel Dorrego",
                    "provincia_id": "06",
                    "provincia_nombre": "Buenos Aires"
                },
                {
                    "centroide_lat": -38.1477437843902,
                    "centroide_lon": -61.2646589620305,
                    "id": "06196",
                    "nombre": "Coronel Pringles",
                    "provincia_id": "06",
                    "provincia_nombre": "Buenos Aires"
                },
                {
                    "centroide_lat": -37.5325532169014,
                    "centroide_lon": -61.8893137767698,
                    "id": "06203",
                    "nombre": "Coronel Suárez",
                    "provincia_id": "06",
                    "provincia_nombre": "Buenos Aires"
                },
                {
                    "centroide_lat": -36.6405459243249,
                    "centroide_lon": -61.891417127905,
                    "id": "06231",
                    "nombre": "Daireaux",
                    "provincia_id": "06",
                    "provincia_nombre": "Buenos Aires"
                },
                {
                    "centroide_lat": -36.3986615531875,
                    "centroide_lon": -57.6326112997092,
                    "id": "06238",
                    "nombre": "Dolores",
                    "provincia_id": "06",
                    "provincia_nombre": "Buenos Aires"
                },
                {
                    "centroide_lat": -34.8422541242657,
                    "centroide_lon": -57.9789322377767,
                    "id": "06245",
                    "nombre": "Ensenada",
                    "provincia_id": "06",
                    "provincia_nombre": "Buenos Aires"
                },
                {
                    "centroide_lat": -34.3287181500871,
                    "centroide_lon": -58.7711281467385,
                    "id": "06252",
                    "nombre": "Escobar",
                    "provincia_id": "06",
                    "provincia_nombre": "Buenos Aires"
                },
                {
                    "centroide_lat": -34.8312099703342,
                    "centroide_lon": -58.476969025414,
                    "id": "06260",
                    "nombre": "Esteban Echeverría",
                    "provincia_id": "06",
                    "provincia_nombre": "Buenos Aires"
                },
                {
                    "centroide_lat": -34.2951491690699,
                    "centroide_lon": -59.1559117007684,
                    "id": "06266",
                    "nombre": "Exaltación de la Cruz",
                    "provincia_id": "06",
                    "provincia_nombre": "Buenos Aires"
                },
                {
                    "centroide_lat": -34.8778729879112,
                    "centroide_lon": -58.2586377649204,
                    "id": "06274",
                    "nombre": "Florencio Varela",
                    "provincia_id": "06",
                    "provincia_nombre": "Buenos Aires"
                },
                {
                    "centroide_lat": -34.8738967496734,
                    "centroide_lon": -62.4013534701346,
                    "id": "06277",
                    "nombre": "Florentino Ameghino",
                    "provincia_id": "06",
                    "provincia_nombre": "Buenos Aires"
                },
                {
                    "centroide_lat": -38.2027130466251,
                    "centroide_lon": -58.0722485722113,
                    "id": "06280",
                    "nombre": "General Alvarado",
                    "provincia_id": "06",
                    "provincia_nombre": "Buenos Aires"
                },
                {
                    "centroide_lat": -36.0345220351902,
                    "centroide_lon": -60.1333612561516,
                    "id": "06287",
                    "nombre": "General Alvear",
                    "provincia_id": "06",
                    "provincia_nombre": "Buenos Aires"
                },
                {
                    "centroide_lat": -34.237459671314,
                    "centroide_lon": -61.2838006242346,
                    "id": "06294",
                    "nombre": "General Arenales",
                    "provincia_id": "06",
                    "provincia_nombre": "Buenos Aires"
                },
                {
                    "centroide_lat": -35.8349745328235,
                    "centroide_lon": -58.6980461310919,
                    "id": "06301",
                    "nombre": "General Belgrano",
                    "provincia_id": "06",
                    "provincia_nombre": "Buenos Aires"
                },
                {
                    "centroide_lat": -36.6659831488299,
                    "centroide_lon": -57.9957841120045,
                    "id": "06308",
                    "nombre": "General Guido",
                    "provincia_id": "06",
                    "provincia_nombre": "Buenos Aires"
                },
                {
                    "centroide_lat": -37.1532136536641,
                    "centroide_lon": -57.2307866316173,
                    "id": "06315",
                    "nombre": "General Juan Madariaga",
                    "provincia_id": "06",
                    "provincia_nombre": "Buenos Aires"
                },
                {
                    "centroide_lat": -37.3557097661663,
                    "centroide_lon": -61.3442438803068,
                    "id": "06322",
                    "nombre": "General La Madrid",
                    "provincia_id": "06",
                    "provincia_nombre": "Buenos Aires"
                },
                {
                    "centroide_lat": -34.9094258328137,
                    "centroide_lon": -58.9958733938567,
                    "id": "06329",
                    "nombre": "General Las Heras",
                    "provincia_id": "06",
                    "provincia_nombre": "Buenos Aires"
                },
                {
                    "centroide_lat": -36.6518890129521,
                    "centroide_lon": -56.9422695810513,
                    "id": "06336",
                    "nombre": "General Lavalle",
                    "provincia_id": "06",
                    "provincia_nombre": "Buenos Aires"
                },
                {
                    "centroide_lat": -35.4662020729313,
                    "centroide_lon": -58.3900057061752,
                    "id": "06343",
                    "nombre": "General Paz",
                    "provincia_id": "06",
                    "provincia_nombre": "Buenos Aires"
                },
                {
                    "centroide_lat": -34.6683135254839,
                    "centroide_lon": -62.0397484845208,
                    "id": "06351",
                    "nombre": "General Pinto",
                    "provincia_id": "06",
                    "provincia_nombre": "Buenos Aires"
                },
                {
                    "centroide_lat": -37.9656760017008,
                    "centroide_lon": -57.743144039076,
                    "id": "06357",
                    "nombre": "General Pueyrredón",
                    "provincia_id": "06",
                    "provincia_nombre": "Buenos Aires"
                },
                {
                    "centroide_lat": -34.6503494927057,
                    "centroide_lon": -58.9879503249052,
                    "id": "06364",
                    "nombre": "General Rodríguez",
                    "provincia_id": "06",
                    "provincia_nombre": "Buenos Aires"
                },
                {
                    "centroide_lat": -34.997569924782,
                    "centroide_lon": -61.0501968347291,
                    "id": "06385",
                    "nombre": "General Viamonte",
                    "provincia_id": "06",
                    "provincia_nombre": "Buenos Aires"
                },
                {
                    "centroide_lat": -34.7687371057529,
                    "centroide_lon": -62.9535454567251,
                    "id": "06392",
                    "nombre": "General Villegas",
                    "provincia_id": "06",
                    "provincia_nombre": "Buenos Aires"
                },
                {
                    "centroide_lat": -36.8905500665858,
                    "centroide_lon": -62.4187740896092,
                    "id": "06399",
                    "nombre": "Guaminí",
                    "provincia_id": "06",
                    "provincia_nombre": "Buenos Aires"
                },
                {
                    "centroide_lat": -36.2593312232241,
                    "centroide_lon": -61.6600936665535,
                    "id": "06406",
                    "nombre": "Hipólito Yrigoyen",
                    "provincia_id": "06",
                    "provincia_nombre": "Buenos Aires"
                },
                {
                    "centroide_lat": -34.5992140053733,
                    "centroide_lon": -58.6496943606349,
                    "id": "06408",
                    "nombre": "Hurlingham",
                    "provincia_id": "06",
                    "provincia_nombre": "Buenos Aires"
                },
                {
                    "centroide_lat": -34.6360018167543,
                    "centroide_lon": -58.6887583352667,
                    "id": "06410",
                    "nombre": "Ituzaingó",
                    "provincia_id": "06",
                    "provincia_nombre": "Buenos Aires"
                },
                {
                    "centroide_lat": -34.5118758903445,
                    "centroide_lon": -58.7776710941743,
                    "id": "06412",
                    "nombre": "José C. Paz",
                    "provincia_id": "06",
                    "provincia_nombre": "Buenos Aires"
                },
                {
                    "centroide_lat": -34.8758213531443,
                    "centroide_lon": -58.5648395364287,
                    "id": "06270",
                    "nombre": "José M. Ezeiza",
                    "provincia_id": "06",
                    "provincia_nombre": "Buenos Aires"
                },
                {
                    "centroide_lat": -34.546128336039,
                    "centroide_lon": -61.0054940705488,
                    "id": "06413",
                    "nombre": "Junín",
                    "provincia_id": "06",
                    "provincia_nombre": "Buenos Aires"
                },
                {
                    "centroide_lat": -36.6782018297724,
                    "centroide_lon": -56.7189105094625,
                    "id": "06420",
                    "nombre": "La Costa",
                    "provincia_id": "06",
                    "provincia_nombre": "Buenos Aires"
                },
                {
                    "centroide_lat": -34.7701647288569,
                    "centroide_lon": -58.6254486939189,
                    "id": "06427",
                    "nombre": "La Matanza",
                    "provincia_id": "06",
                    "provincia_nombre": "Buenos Aires"
                },
                {
                    "centroide_lat": -35.0034938070318,
                    "centroide_lon": -58.0180274992052,
                    "id": "06441",
                    "nombre": "La Plata",
                    "provincia_id": "06",
                    "provincia_nombre": "Buenos Aires"
                },
                {
                    "centroide_lat": -34.7057824914432,
                    "centroide_lon": -58.3954484986693,
                    "id": "06434",
                    "nombre": "Lanús",
                    "provincia_id": "06",
                    "provincia_nombre": "Buenos Aires"
                },
                {
                    "centroide_lat": -37.5155525089772,
                    "centroide_lon": -60.7680626719213,
                    "id": "06448",
                    "nombre": "Laprida",
                    "provincia_id": "06",
                    "provincia_nombre": "Buenos Aires"
                },
                {
                    "centroide_lat": -36.0157017377305,
                    "centroide_lon": -59.1769657671576,
                    "id": "06455",
                    "nombre": "Las Flores",
                    "provincia_id": "06",
                    "provincia_nombre": "Buenos Aires"
                },
                {
                    "centroide_lat": -34.4979563497613,
                    "centroide_lon": -61.61293092454,
                    "id": "06462",
                    "nombre": "Leandro N. Alem",
                    "provincia_id": "06",
                    "provincia_nombre": "Buenos Aires"
                },
                {
                    "centroide_lat": -35.8494190496267,
                    "centroide_lon": -57.89575256553,
                    "id": "06466",
                    "nombre": "Lezama",
                    "provincia_id": "06",
                    "provincia_nombre": "Buenos Aires"
                },
                {
                    "centroide_lat": -35.070384883326,
                    "centroide_lon": -61.6827618200122,
                    "id": "06469",
                    "nombre": "Lincoln",
                    "provincia_id": "06",
                    "provincia_nombre": "Buenos Aires"
                },
                {
                    "centroide_lat": -38.0897033467581,
                    "centroide_lon": -58.6939656644915,
                    "id": "06476",
                    "nombre": "Lobería",
                    "provincia_id": "06",
                    "provincia_nombre": "Buenos Aires"
                },
                {
                    "centroide_lat": -35.2195598528609,
                    "centroide_lon": -59.1458071242931,
                    "id": "06483",
                    "nombre": "Lobos",
                    "provincia_id": "06",
                    "provincia_nombre": "Buenos Aires"
                },
                {
                    "centroide_lat": -34.7554708441214,
                    "centroide_lon": -58.424078867213,
                    "id": "06490",
                    "nombre": "Lomas de Zamora",
                    "provincia_id": "06",
                    "provincia_nombre": "Buenos Aires"
                },
                {
                    "centroide_lat": -34.5676194636906,
                    "centroide_lon": -59.1585123543241,
                    "id": "06497",
                    "nombre": "Luján",
                    "provincia_id": "06",
                    "provincia_nombre": "Buenos Aires"
                },
                {
                    "centroide_lat": -35.1849498629024,
                    "centroide_lon": -57.6863916156026,
                    "id": "06505",
                    "nombre": "Magdalena",
                    "provincia_id": "06",
                    "provincia_nombre": "Buenos Aires"
                },
                {
                    "centroide_lat": -36.8865728387855,
                    "centroide_lon": -57.586173153195,
                    "id": "06511",
                    "nombre": "Maipú",
                    "provincia_id": "06",
                    "provincia_nombre": "Buenos Aires"
                },
                {
                    "centroide_lat": -34.4873038284663,
                    "centroide_lon": -58.7121329971982,
                    "id": "06515",
                    "nombre": "Malvinas Argentinas",
                    "provincia_id": "06",
                    "provincia_nombre": "Buenos Aires"
                },
                {
                    "centroide_lat": -37.4984341235843,
                    "centroide_lon": -57.6436183302355,
                    "id": "06518",
                    "nombre": "Mar Chiquita",
                    "provincia_id": "06",
                    "provincia_nombre": "Buenos Aires"
                },
                {
                    "centroide_lat": -34.8137199832046,
                    "centroide_lon": -58.8480634347315,
                    "id": "06525",
                    "nombre": "Marcos Paz",
                    "provincia_id": "06",
                    "provincia_nombre": "Buenos Aires"
                },
                {
                    "centroide_lat": -34.6971944325993,
                    "centroide_lon": -59.42081198401,
                    "id": "06532",
                    "nombre": "Mercedes",
                    "provincia_id": "06",
                    "provincia_nombre": "Buenos Aires"
                },
                {
                    "centroide_lat": -34.7108867791705,
                    "centroide_lon": -58.7418777656329,
                    "id": "06539",
                    "nombre": "Merlo",
                    "provincia_id": "06",
                    "provincia_nombre": "Buenos Aires"
                },
                {
                    "centroide_lat": -35.5103702936319,
                    "centroide_lon": -58.7694635013319,
                    "id": "06547",
                    "nombre": "Monte",
                    "provincia_id": "06",
                    "provincia_nombre": "Buenos Aires"
                },
                {
                    "centroide_lat": -38.96257223668,
                    "centroide_lon": -61.2904738793276,
                    "id": "06553",
                    "nombre": "Monte Hermoso",
                    "provincia_id": "06",
                    "provincia_nombre": "Buenos Aires"
                },
                {
                    "centroide_lat": -34.610617117824,
                    "centroide_lon": -58.8109232680035,
                    "id": "06560",
                    "nombre": "Moreno",
                    "provincia_id": "06",
                    "provincia_nombre": "Buenos Aires"
                },
                {
                    "centroide_lat": -34.6491410653179,
                    "centroide_lon": -58.6198433488168,
                    "id": "06568",
                    "nombre": "Morón",
                    "provincia_id": "06",
                    "provincia_nombre": "Buenos Aires"
                },
                {
                    "centroide_lat": -35.0304083582525,
                    "centroide_lon": -59.429785480408,
                    "id": "06574",
                    "nombre": "Navarro",
                    "provincia_id": "06",
                    "provincia_nombre": "Buenos Aires"
                },
                {
                    "centroide_lat": -38.2555189703716,
                    "centroide_lon": -59.1673660597249,
                    "id": "06581",
                    "nombre": "Necochea",
                    "provincia_id": "06",
                    "provincia_nombre": "Buenos Aires"
                },
                {
                    "centroide_lat": -36.8567012129546,
                    "centroide_lon": -60.6707349373354,
                    "id": "06595",
                    "nombre": "Olavarría",
                    "provincia_id": "06",
                    "provincia_nombre": "Buenos Aires"
                },
                {
                    "centroide_lat": -40.1973260070881,
                    "centroide_lon": -62.8529094080666,
                    "id": "06602",
                    "nombre": "Patagones",
                    "provincia_id": "06",
                    "provincia_nombre": "Buenos Aires"
                },
                {
                    "centroide_lat": -35.8833833438579,
                    "centroide_lon": -61.9271985156994,
                    "id": "06609",
                    "nombre": "Pehuajó",
                    "provincia_id": "06",
                    "provincia_nombre": "Buenos Aires"
                },
                {
                    "centroide_lat": -36.2709141317271,
                    "centroide_lon": -63.2257388675861,
                    "id": "06616",
                    "nombre": "Pellegrini",
                    "provincia_id": "06",
                    "provincia_nombre": "Buenos Aires"
                },
                {
                    "centroide_lat": -33.835815535365,
                    "centroide_lon": -60.5450748689588,
                    "id": "06623",
                    "nombre": "Pergamino",
                    "provincia_id": "06",
                    "provincia_nombre": "Buenos Aires"
                },
                {
                    "centroide_lat": -36.2023512628961,
                    "centroide_lon": -58.3408970254988,
                    "id": "06630",
                    "nombre": "Pila",
                    "provincia_id": "06",
                    "provincia_nombre": "Buenos Aires"
                },
                {
                    "centroide_lat": -34.4481990221196,
                    "centroide_lon": -58.9034413925773,
                    "id": "06638",
                    "nombre": "Pilar",
                    "provincia_id": "06",
                    "provincia_nombre": "Buenos Aires"
                },
                {
                    "centroide_lat": -37.1099458706882,
                    "centroide_lon": -56.8696753966329,
                    "id": "06644",
                    "nombre": "Pinamar",
                    "provincia_id": "06",
                    "provincia_nombre": "Buenos Aires"
                },
                {
                    "centroide_lat": -34.9298313021932,
                    "centroide_lon": -58.398091246683,
                    "id": "06648",
                    "nombre": "Presidente Perón",
                    "provincia_id": "06",
                    "provincia_nombre": "Buenos Aires"
                },
                {
                    "centroide_lat": -38.0746044477032,
                    "centroide_lon": -63.0577463401906,
                    "id": "06651",
                    "nombre": "Puán",
                    "provincia_id": "06",
                    "provincia_nombre": "Buenos Aires"
                },
                {
                    "centroide_lat": -35.4261581087913,
                    "centroide_lon": -57.3996034519105,
                    "id": "06655",
                    "nombre": "Punta Indio",
                    "provincia_id": "06",
                    "provincia_nombre": "Buenos Aires"
                },
                {
                    "centroide_lat": -34.7350141996909,
                    "centroide_lon": -58.2768874201614,
                    "id": "06658",
                    "nombre": "Quilmes",
                    "provincia_id": "06",
                    "provincia_nombre": "Buenos Aires"
                },
                {
                    "centroide_lat": -33.5872972390017,
                    "centroide_lon": -60.0574845905723,
                    "id": "06665",
                    "nombre": "Ramallo",
                    "provincia_id": "06",
                    "provincia_nombre": "Buenos Aires"
                },
                {
                    "centroide_lat": -36.5722509524193,
                    "centroide_lon": -58.9444061302172,
                    "id": "06672",
                    "nombre": "Rauch",
                    "provincia_id": "06",
                    "provincia_nombre": "Buenos Aires"
                },
                {
                    "centroide_lat": -35.5809627302368,
                    "centroide_lon": -63.0945777162156,
                    "id": "06679",
                    "nombre": "Rivadavia",
                    "provincia_id": "06",
                    "provincia_nombre": "Buenos Aires"
                },
                {
                    "centroide_lat": -34.1926035952586,
                    "centroide_lon": -60.7879706568364,
                    "id": "06686",
                    "nombre": "Rojas",
                    "provincia_id": "06",
                    "provincia_nombre": "Buenos Aires"
                },
                {
                    "centroide_lat": -35.4811110714388,
                    "centroide_lon": -59.3595940527063,
                    "id": "06693",
                    "nombre": "Roque Pérez",
                    "provincia_id": "06",
                    "provincia_nombre": "Buenos Aires"
                },
                {
                    "centroide_lat": -37.7710550160995,
                    "centroide_lon": -62.4351452974673,
                    "id": "06700",
                    "nombre": "Saavedra",
                    "provincia_id": "06",
                    "provincia_nombre": "Buenos Aires"
                },
                {
                    "centroide_lat": -35.6765966680226,
                    "centroide_lon": -59.7037033020054,
                    "id": "06707",
                    "nombre": "Saladillo",
                    "provincia_id": "06",
                    "provincia_nombre": "Buenos Aires"
                },
                {
                    "centroide_lat": -36.6710137553167,
                    "centroide_lon": -63.0491259803334,
                    "id": "06721",
                    "nombre": "Salliqueló",
                    "provincia_id": "06",
                    "provincia_nombre": "Buenos Aires"
                },
                {
                    "centroide_lat": -34.2708350525697,
                    "centroide_lon": -60.305182566345,
                    "id": "06714",
                    "nombre": "Salto",
                    "provincia_id": "06",
                    "provincia_nombre": "Buenos Aires"
                },
                {
                    "centroide_lat": -34.4377851586384,
                    "centroide_lon": -59.4732938848478,
                    "id": "06728",
                    "nombre": "San Andrés de Giles",
                    "provincia_id": "06",
                    "provincia_nombre": "Buenos Aires"
                },
                {
                    "centroide_lat": -34.2206591685119,
                    "centroide_lon": -59.5193792218302,
                    "id": "06735",
                    "nombre": "San Antonio de Areco",
                    "provincia_id": "06",
                    "provincia_nombre": "Buenos Aires"
                },
                {
                    "centroide_lat": -38.3886180658492,
                    "centroide_lon": -59.5866369475028,
                    "id": "06742",
                    "nombre": "San Cayetano",
                    "provincia_id": "06",
                    "provincia_nombre": "Buenos Aires"
                },
                {
                    "centroide_lat": -34.1512700249506,
                    "centroide_lon": -58.5459540333809,
                    "id": "06749",
                    "nombre": "San Fernando",
                    "provincia_id": "06",
                    "provincia_nombre": "Buenos Aires"
                },
                {
                    "centroide_lat": -34.4869499670191,
                    "centroide_lon": -58.5372648522523,
                    "id": "06756",
                    "nombre": "San Isidro",
                    "provincia_id": "06",
                    "provincia_nombre": "Buenos Aires"
                },
                {
                    "centroide_lat": -34.5520919648351,
                    "centroide_lon": -58.6917055208826,
                    "id": "06760",
                    "nombre": "San Miguel",
                    "provincia_id": "06",
                    "provincia_nombre": "Buenos Aires"
                },
                {
                    "centroide_lat": -33.4825541340452,
                    "centroide_lon": -60.292953731623,
                    "id": "06763",
                    "nombre": "San Nicolás",
                    "provincia_id": "06",
                    "provincia_nombre": "Buenos Aires"
                },
                {
                    "centroide_lat": -33.7819425849294,
                    "centroide_lon": -59.7825917634816,
                    "id": "06770",
                    "nombre": "San Pedro",
                    "provincia_id": "06",
                    "provincia_nombre": "Buenos Aires"
                },
                {
                    "centroide_lat": -35.0704596398936,
                    "centroide_lon": -58.4319219645129,
                    "id": "06778",
                    "nombre": "San Vicente",
                    "provincia_id": "06",
                    "provincia_nombre": "Buenos Aires"
                },
                {
                    "centroide_lat": -34.7485629683304,
                    "centroide_lon": -59.7034737442182,
                    "id": "06784",
                    "nombre": "Suipacha",
                    "provincia_id": "06",
                    "provincia_nombre": "Buenos Aires"
                },
                {
                    "centroide_lat": -37.3356554181577,
                    "centroide_lon": -59.181805577778,
                    "id": "06791",
                    "nombre": "Tandil",
                    "provincia_id": "06",
                    "provincia_nombre": "Buenos Aires"
                },
                {
                    "centroide_lat": -36.3471383108251,
                    "centroide_lon": -60.1308804386321,
                    "id": "06798",
                    "nombre": "Tapalqué",
                    "provincia_id": "06",
                    "provincia_nombre": "Buenos Aires"
                },
                {
                    "centroide_lat": -34.3815893993371,
                    "centroide_lon": -58.599453988125,
                    "id": "06805",
                    "nombre": "Tigre",
                    "provincia_id": "06",
                    "provincia_nombre": "Buenos Aires"
                },
                {
                    "centroide_lat": -36.3908002975414,
                    "centroide_lon": -57.2746828657242,
                    "id": "06812",
                    "nombre": "Tordillo",
                    "provincia_id": "06",
                    "provincia_nombre": "Buenos Aires"
                },
                {
                    "centroide_lat": -38.255785801668,
                    "centroide_lon": -62.2904249803924,
                    "id": "06819",
                    "nombre": "Tornquist",
                    "provincia_id": "06",
                    "provincia_nombre": "Buenos Aires"
                },
                {
                    "centroide_lat": -36.0564352739976,
                    "centroide_lon": -62.6346332497416,
                    "id": "06826",
                    "nombre": "Trenque Lauquen",
                    "provincia_id": "06",
                    "provincia_nombre": "Buenos Aires"
                },
                {
                    "centroide_lat": -38.5116665533312,
                    "centroide_lon": -60.2376664741026,
                    "id": "06833",
                    "nombre": "Tres Arroyos",
                    "provincia_id": "06",
                    "provincia_nombre": "Buenos Aires"
                },
                {
                    "centroide_lat": -34.5959797363173,
                    "centroide_lon": -58.5790926022347,
                    "id": "06840",
                    "nombre": "Tres de Febrero",
                    "provincia_id": "06",
                    "provincia_nombre": "Buenos Aires"
                },
                {
                    "centroide_lat": -36.4973152716526,
                    "centroide_lon": -62.8634418902354,
                    "id": "06847",
                    "nombre": "Tres Lomas",
                    "provincia_id": "06",
                    "provincia_nombre": "Buenos Aires"
                },
                {
                    "centroide_lat": -34.5265131808416,
                    "centroide_lon": -58.5044695897767,
                    "id": "06861",
                    "nombre": "Vicente López",
                    "provincia_id": "06",
                    "provincia_nombre": "Buenos Aires"
                },
                {
                    "centroide_lat": -37.3705193886837,
                    "centroide_lon": -57.0658445979783,
                    "id": "06868",
                    "nombre": "Villa Gesell",
                    "provincia_id": "06",
                    "provincia_nombre": "Buenos Aires"
                },
                {
                    "centroide_lat": -39.1296648457138,
                    "centroide_lon": -62.7268024308429,
                    "id": "06875",
                    "nombre": "Villarino",
                    "provincia_id": "06",
                    "provincia_nombre": "Buenos Aires"
                },
                {
                    "centroide_lat": -33.9971401820257,
                    "centroide_lon": -59.1284709610169,
                    "id": "06882",
                    "nombre": "Zárate",
                    "provincia_id": "06",
                    "provincia_nombre": "Buenos Aires"
                }
            ],
            "inicio": 0,
            "parametros": {
                "aplanar": true,
                "campos": [
                    "centroide.lon",
                    "id",
                    "provincia.nombre",
                    "nombre",
                    "provincia.id",
                    "centroide.lat"
                ],
                "exacto": true,
                "max": 1000,
                "orden": "nombre",
                "provincia": "Buenos Aires"
            },
            "total": 135
        },
        "Catamarca": {
            "cantidad": 16,
            "departamentos": [
                {
                    "centroide_lat": -28.0189344685483,
                    "centroide_lon": -65.9222983796596,
                    "id": "10007",
                    "nombre": "Ambato",
                    "provincia_id": "10",
                    "provincia_nombre": "Catamarca"
                },
                {
                    "centroide_lat": -28.9266675681635,
                    "centroide_lon": -65.5038083174841,
                    "id": "10014",
                    "nombre": "Ancasti",
                    "provincia_id": "10",
                    "provincia_nombre": "Catamarca"
                },
                {
                    "centroide_lat": -27.5445087646164,
                    "centroide_lon": -66.3560062057426,
                    "id": "10021",
                    "nombre": "Andalgalá",
                    "provincia_id": "10",
                    "provincia_nombre": "Catamarca"
                },
                {
                    "centroide_lat": -25.9455797002151,
                    "centroide_lon": -67.6777645009401,
                    "id": "10028",
                    "nombre": "Antofagasta de la Sierra",
                    "provincia_id": "10",
                    "provincia_nombre": "Catamarca"
                },
                {
                    "centroide_lat": -27.1000545044873,
                    "centroide_lon": -66.9223774125099,
                    "id": "10035",
                    "nombre": "Belén",
                    "provincia_id": "10",
                    "provincia_nombre": "Catamarca"
                },
                {
                    "centroide_lat": -28.9092326420174,
                    "centroide_lon": -65.9015706538014,
                    "id": "10042",
                    "nombre": "Capayán",
                    "provincia_id": "10",
                    "provincia_nombre": "Catamarca"
                },
                {
                    "centroide_lat": -28.4104559393629,
                    "centroide_lon": -65.8362002957174,
                    "id": "10049",
                    "nombre": "Capital",
                    "provincia_id": "10",
                    "provincia_nombre": "Catamarca"
                },
                {
                    "centroide_lat": -28.430382930044,
                    "centroide_lon": -65.3599245662077,
                    "id": "10056",
                    "nombre": "El Alto",
                    "provincia_id": "10",
                    "provincia_nombre": "Catamarca"
                },
                {
                    "centroide_lat": -28.3329401551221,
                    "centroide_lon": -65.7309008581155,
                    "id": "10063",
                    "nombre": "Fray Mamerto Esquiú",
                    "provincia_id": "10",
                    "provincia_nombre": "Catamarca"
                },
                {
                    "centroide_lat": -29.3952000610314,
                    "centroide_lon": -65.1919504325436,
                    "id": "10070",
                    "nombre": "La Paz",
                    "provincia_id": "10",
                    "provincia_nombre": "Catamarca"
                },
                {
                    "centroide_lat": -28.1100496216627,
                    "centroide_lon": -65.6738760483046,
                    "id": "10077",
                    "nombre": "Paclín",
                    "provincia_id": "10",
                    "provincia_nombre": "Catamarca"
                },
                {
                    "centroide_lat": -28.2055993966253,
                    "centroide_lon": -66.4072986488285,
                    "id": "10084",
                    "nombre": "Pomán",
                    "provincia_id": "10",
                    "provincia_nombre": "Catamarca"
                },
                {
                    "centroide_lat": -26.7859032829476,
                    "centroide_lon": -66.2618848691237,
                    "id": "10091",
                    "nombre": "Santa María",
                    "provincia_id": "10",
                    "provincia_nombre": "Catamarca"
                },
                {
                    "centroide_lat": -28.0814710804867,
                    "centroide_lon": -65.3349462642257,
                    "id": "10098",
                    "nombre": "Santa Rosa",
                    "provincia_id": "10",
                    "provincia_nombre": "Catamarca"
                },
                {
                    "centroide_lat": -27.5405127310562,
                    "centroide_lon": -67.9292408147481,
                    "id": "10105",
                    "nombre": "Tinogasta",
                    "provincia_id": "10",
                    "provincia_nombre": "Catamarca"
                },
                {
                    "centroide_lat": -28.5987132205968,
                    "centroide_lon": -65.7071834454567,
                    "id": "10112",
                    "nombre": "Valle Viejo",
                    "provincia_id": "10",
                    "provincia_nombre": "Catamarca"
                }
            ],
            "inicio": 0,
            "parametros": {
                "aplanar": true,
                "campos": [
                    "centroide.lon",
                    "id",
                    "provincia.nombre",
                    "nombre",
                    "provincia.id",
                    "centroide.lat"
                ],
                "exacto": true,
                "max": 1000,
                "orden": "nombre",
                "provincia": "Catamarca"
            },
            "total": 16
        },
        "Chaco": {
            "cantidad": 25,
            "departamentos": [
                {
                    "centroide_lat": -27.3362384898477,
                    "centroide_lon": -61.4747691940114,
                    "id": "22036",
                    "nombre": "12 de Octubre",
                    "provincia_id": "22",
                    "provincia_nombre": "Chaco"
                },
                {
                    "centroide_lat": -27.1691720457957,
                    "centroide_lon": -58.9595089153944,
                    "id": "22126",
                    "nombre": "1° de Mayo",
                    "provincia_id": "22",
                    "provincia_nombre": "Chaco"
                },
                {
                    "centroide_lat": -27.6219112869485,
                    "centroide_lon": -61.3295201872432,
                    "id": "22039",
                    "nombre": "2 de Abril",
                    "provincia_id": "22",
                    "provincia_nombre": "Chaco"
                },
                {
                    "centroide_lat": -26.8190298006571,
                    "centroide_lon": -60.0187693847422,
                    "id": "22168",
                    "nombre": "25 de Mayo",
                    "provincia_id": "22",
                    "provincia_nombre": "Chaco"
                },
                {
                    "centroide_lat": -26.9455386975653,
                    "centroide_lon": -61.2652576678175,
                    "id": "22105",
                    "nombre": "9 de Julio",
                    "provincia_id": "22",
                    "provincia_nombre": "Chaco"
                },
                {
                    "centroide_lat": -25.747858341484,
                    "centroide_lon": -61.9605236304385,
                    "id": "22007",
                    "nombre": "Almirante Brown",
                    "provincia_id": "22",
                    "provincia_nombre": "Chaco"
                },
                {
                    "centroide_lat": -26.958636224259,
                    "centroide_lon": -58.7093649014335,
                    "id": "22014",
                    "nombre": "Bermejo",
                    "provincia_id": "22",
                    "provincia_nombre": "Chaco"
                },
                {
                    "centroide_lat": -27.1179308909271,
                    "centroide_lon": -61.3088910569936,
                    "id": "22028",
                    "nombre": "Chacabuco",
                    "provincia_id": "22",
                    "provincia_nombre": "Chaco"
                },
                {
                    "centroide_lat": -26.7871365610548,
                    "centroide_lon": -60.4618654287039,
                    "id": "22021",
                    "nombre": "Comandante Fernández",
                    "provincia_id": "22",
                    "provincia_nombre": "Chaco"
                },
                {
                    "centroide_lat": -27.8662498172761,
                    "centroide_lon": -61.300959824592,
                    "id": "22043",
                    "nombre": "Fray Justo Santa María de Oro",
                    "provincia_id": "22",
                    "provincia_nombre": "Chaco"
                },
                {
                    "centroide_lat": -26.849534277685,
                    "centroide_lon": -61.071967717894,
                    "id": "22049",
                    "nombre": "General Belgrano",
                    "provincia_id": "22",
                    "provincia_nombre": "Chaco"
                },
                {
                    "centroide_lat": -27.1409287639679,
                    "centroide_lon": -59.3474877785089,
                    "id": "22056",
                    "nombre": "General Donovan",
                    "provincia_id": "22",
                    "provincia_nombre": "Chaco"
                },
                {
                    "centroide_lat": -25.2137925689732,
                    "centroide_lon": -61.337579887251,
                    "id": "22063",
                    "nombre": "General Güemes",
                    "provincia_id": "22",
                    "provincia_nombre": "Chaco"
                },
                {
                    "centroide_lat": -26.736996206931,
                    "centroide_lon": -60.7570241668236,
                    "id": "22070",
                    "nombre": "Independencia",
                    "provincia_id": "22",
                    "provincia_nombre": "Chaco"
                },
                {
                    "centroide_lat": -27.3511465491091,
                    "centroide_lon": -59.2606339567401,
                    "id": "22077",
                    "nombre": "Libertad",
                    "provincia_id": "22",
                    "provincia_nombre": "Chaco"
                },
                {
                    "centroide_lat": -26.3785169756021,
                    "centroide_lon": -59.4878778128786,
                    "id": "22084",
                    "nombre": "Libertador General San Martín",
                    "provincia_id": "22",
                    "provincia_nombre": "Chaco"
                },
                {
                    "centroide_lat": -26.3210291409673,
                    "centroide_lon": -60.4553482590556,
                    "id": "22091",
                    "nombre": "Maipú",
                    "provincia_id": "22",
                    "provincia_nombre": "Chaco"
                },
                {
                    "centroide_lat": -27.7436812830101,
                    "centroide_lon": -60.6581451476891,
                    "id": "22098",
                    "nombre": "Mayor Luis J. Fontana",
                    "provincia_id": "22",
                    "provincia_nombre": "Chaco"
                },
                {
                    "centroide_lat": -27.2575511794731,
                    "centroide_lon": -60.6806781684245,
                    "id": "22112",
                    "nombre": "O'Higgins",
                    "provincia_id": "22",
                    "provincia_nombre": "Chaco"
                },
                {
                    "centroide_lat": -27.0468199682862,
                    "centroide_lon": -59.7751691822068,
                    "id": "22119",
                    "nombre": "Presidencia de la Plaza",
                    "provincia_id": "22",
                    "provincia_nombre": "Chaco"
                },
                {
                    "centroide_lat": -26.6685132272644,
                    "centroide_lon": -60.1735021538447,
                    "id": "22133",
                    "nombre": "Quitilipi",
                    "provincia_id": "22",
                    "provincia_nombre": "Chaco"
                },
                {
                    "centroide_lat": -27.7160106963678,
                    "centroide_lon": -59.1157493078992,
                    "id": "22140",
                    "nombre": "San Fernando",
                    "provincia_id": "22",
                    "provincia_nombre": "Chaco"
                },
                {
                    "centroide_lat": -27.3950475960133,
                    "centroide_lon": -60.3646185068028,
                    "id": "22147",
                    "nombre": "San Lorenzo",
                    "provincia_id": "22",
                    "provincia_nombre": "Chaco"
                },
                {
                    "centroide_lat": -26.8016874124461,
                    "centroide_lon": -59.5196519224863,
                    "id": "22154",
                    "nombre": "Sargento Cabral",
                    "provincia_id": "22",
                    "provincia_nombre": "Chaco"
                },
                {
                    "centroide_lat": -27.6598759889301,
                    "centroide_lon": -59.8288687407326,
                    "id": "22161",
                    "nombre": "Tapenagá",
                    "provincia_id": "22",
                    "provincia_nombre": "Chaco"
                }
            ],
            "inicio": 0,
            "parametros": {
                "aplanar": true,
                "campos": [
                    "centroide.lon",
                    "id",
                    "provincia.nombre",
                    "nombre",
                    "provincia.id",
                    "centroide.lat"
                ],
                "exacto": true,
                "max": 1000,
                "orden": "nombre",
                "provincia": "Chaco"
            },
            "total": 25
        },
        "Chubut": {
            "cantidad": 15,
            "departamentos": [
                {
                    "centroide_lat": -42.4436350204267,
                    "centroide_lon": -64.9332260287713,
                    "id": "26007",
                    "nombre": "Biedma",
                    "provincia_id": "26",
                    "provincia_nombre": "Chubut"
                },
                {
                    "centroide_lat": -42.36635302228,
                    "centroide_lon": -70.7120117319755,
                    "id": "26014",
                    "nombre": "Cushamen",
                    "provincia_id": "26",
                    "provincia_nombre": "Chubut"
                },
                {
                    "centroide_lat": -45.282788434735,
                    "centroide_lon": -67.7087570024311,
                    "id": "26021",
                    "nombre": "Escalante",
                    "provincia_id": "26",
                    "provincia_nombre": "Chubut"
                },
                {
                    "centroide_lat": -44.4232685527937,
                    "centroide_lon": -66.1300665443193,
                    "id": "26028",
                    "nombre": "Florentino Ameghino",
                    "provincia_id": "26",
                    "provincia_nombre": "Chubut"
                },
                {
                    "centroide_lat": -43.070540741803,
                    "centroide_lon": -71.4553756889394,
                    "id": "26035",
                    "nombre": "Futaleufú",
                    "provincia_id": "26",
                    "provincia_nombre": "Chubut"
                },
                {
                    "centroide_lat": -43.2727624456965,
                    "centroide_lon": -66.172162203297,
                    "id": "26042",
                    "nombre": "Gaiman",
                    "provincia_id": "26",
                    "provincia_nombre": "Chubut"
                },
                {
                    "centroide_lat": -42.7490685142491,
                    "centroide_lon": -68.802322331286,
                    "id": "26049",
                    "nombre": "Gastre",
                    "provincia_id": "26",
                    "provincia_nombre": "Chubut"
                },
                {
                    "centroide_lat": -43.3234947781653,
                    "centroide_lon": -70.3484257364086,
                    "id": "26056",
                    "nombre": "Languiñeo",
                    "provincia_id": "26",
                    "provincia_nombre": "Chubut"
                },
                {
                    "centroide_lat": -43.8138432526407,
                    "centroide_lon": -67.2400230074032,
                    "id": "26063",
                    "nombre": "Mártires",
                    "provincia_id": "26",
                    "provincia_nombre": "Chubut"
                },
                {
                    "centroide_lat": -44.0301843800804,
                    "centroide_lon": -68.6858628378391,
                    "id": "26070",
                    "nombre": "Paso de Indios",
                    "provincia_id": "26",
                    "provincia_nombre": "Chubut"
                },
                {
                    "centroide_lat": -43.1372229709113,
                    "centroide_lon": -65.0757246833498,
                    "id": "26077",
                    "nombre": "Rawson",
                    "provincia_id": "26",
                    "provincia_nombre": "Chubut"
                },
                {
                    "centroide_lat": -45.3403562037762,
                    "centroide_lon": -70.6400981523958,
                    "id": "26084",
                    "nombre": "Río Senguer",
                    "provincia_id": "26",
                    "provincia_nombre": "Chubut"
                },
                {
                    "centroide_lat": -45.3450235273933,
                    "centroide_lon": -69.0028353555711,
                    "id": "26091",
                    "nombre": "Sarmiento",
                    "provincia_id": "26",
                    "provincia_nombre": "Chubut"
                },
                {
                    "centroide_lat": -44.2000353406651,
                    "centroide_lon": -70.5768950488331,
                    "id": "26098",
                    "nombre": "Tehuelches",
                    "provincia_id": "26",
                    "provincia_nombre": "Chubut"
                },
                {
                    "centroide_lat": -42.4389445468027,
                    "centroide_lon": -67.1769071477022,
                    "id": "26105",
                    "nombre": "Telsen",
                    "provincia_id": "26",
                    "provincia_nombre": "Chubut"
                }
            ],
            "inicio": 0,
            "parametros": {
                "aplanar": true,
                "campos": [
                    "centroide.lon",
                    "id",
                    "provincia.nombre",
                    "nombre",
                    "provincia.id",
                    "centroide.lat"
                ],
                "exacto": true,
                "max": 1000,
                "orden": "nombre",
                "provincia": "Chubut"
            },
            "total": 15
        },
        "Cordoba": {
            "cantidad": 26,
            "departamentos": [
                {
                    "centroide_lat": -32.2027119466219,
                    "centroide_lon": -64.6167170389735,
                    "id": "14007",
                    "nombre": "Calamuchita",
                    "provincia_id": "14",
                    "provincia_nombre": "Córdoba"
                },
                {
                    "centroide_lat": -31.4170686019036,
                    "centroide_lon": -64.1832168468628,
                    "id": "14014",
                    "nombre": "Capital",
                    "provincia_id": "14",
                    "provincia_nombre": "Córdoba"
                },
                {
                    "centroide_lat": -31.1440502226475,
                    "centroide_lon": -64.1528709889175,
                    "id": "14021",
                    "nombre": "Colón",
                    "provincia_id": "14",
                    "provincia_nombre": "Córdoba"
                },
                {
                    "centroide_lat": -30.6580631596452,
                    "centroide_lon": -65.0774738750322,
                    "id": "14028",
                    "nombre": "Cruz del Eje",
                    "provincia_id": "14",
                    "provincia_nombre": "Córdoba"
                },
                {
                    "centroide_lat": -34.6170744283348,
                    "centroide_lon": -64.3787603319835,
                    "id": "14035",
                    "nombre": "General Roca",
                    "provincia_id": "14",
                    "provincia_nombre": "Córdoba"
                },
                {
                    "centroide_lat": -32.5143341151357,
                    "centroide_lon": -63.2562237062848,
                    "id": "14042",
                    "nombre": "General San Martín",
                    "provincia_id": "14",
                    "provincia_nombre": "Córdoba"
                },
                {
                    "centroide_lat": -30.3997182320053,
                    "centroide_lon": -64.6094899792791,
                    "id": "14049",
                    "nombre": "Ischilín",
                    "provincia_id": "14",
                    "provincia_nombre": "Córdoba"
                },
                {
                    "centroide_lat": -33.329445846674,
                    "centroide_lon": -63.6063356482423,
                    "id": "14056",
                    "nombre": "Juárez Celman",
                    "provincia_id": "14",
                    "provincia_nombre": "Córdoba"
                },
                {
                    "centroide_lat": -33.030846572143,
                    "centroide_lon": -62.2767719720096,
                    "id": "14063",
                    "nombre": "Marcos Juárez",
                    "provincia_id": "14",
                    "provincia_nombre": "Córdoba"
                },
                {
                    "centroide_lat": -31.0355515814319,
                    "centroide_lon": -65.4111896095111,
                    "id": "14070",
                    "nombre": "Minas",
                    "provincia_id": "14",
                    "provincia_nombre": "Córdoba"
                },
                {
                    "centroide_lat": -31.4634407170853,
                    "centroide_lon": -65.4384772539188,
                    "id": "14077",
                    "nombre": "Pocho",
                    "provincia_id": "14",
                    "provincia_nombre": "Córdoba"
                },
                {
                    "centroide_lat": -34.1401111180237,
                    "centroide_lon": -63.4187744697841,
                    "id": "14084",
                    "nombre": "Presidente Roque Sáenz Peña",
                    "provincia_id": "14",
                    "provincia_nombre": "Córdoba"
                },
                {
                    "centroide_lat": -31.2225592168079,
                    "centroide_lon": -64.5861516801457,
                    "id": "14091",
                    "nombre": "Punilla",
                    "provincia_id": "14",
                    "provincia_nombre": "Córdoba"
                },
                {
                    "centroide_lat": -33.3308032176015,
                    "centroide_lon": -64.494180483748,
                    "id": "14098",
                    "nombre": "Río Cuarto",
                    "provincia_id": "14",
                    "provincia_nombre": "Córdoba"
                },
                {
                    "centroide_lat": -31.0327992067991,
                    "centroide_lon": -63.4385673505455,
                    "id": "14105",
                    "nombre": "Río Primero",
                    "provincia_id": "14",
                    "provincia_nombre": "Córdoba"
                },
                {
                    "centroide_lat": -30.032189401961,
                    "centroide_lon": -63.2238214757827,
                    "id": "14112",
                    "nombre": "Río Seco",
                    "provincia_id": "14",
                    "provincia_nombre": "Córdoba"
                },
                {
                    "centroide_lat": -31.7330269369319,
                    "centroide_lon": -63.4769207987931,
                    "id": "14119",
                    "nombre": "Río Segundo",
                    "provincia_id": "14",
                    "provincia_nombre": "Córdoba"
                },
                {
                    "centroide_lat": -31.707791961138,
                    "centroide_lon": -65.1564069990554,
                    "id": "14126",
                    "nombre": "San Alberto",
                    "provincia_id": "14",
                    "provincia_nombre": "Córdoba"
                },
                {
                    "centroide_lat": -32.0753882467214,
                    "centroide_lon": -65.1421073770609,
                    "id": "14133",
                    "nombre": "San Javier",
                    "provincia_id": "14",
                    "provincia_nombre": "Córdoba"
                },
                {
                    "centroide_lat": -31.2393990103815,
                    "centroide_lon": -62.5260292405918,
                    "id": "14140",
                    "nombre": "San Justo",
                    "provincia_id": "14",
                    "provincia_nombre": "Córdoba"
                },
                {
                    "centroide_lat": -31.7112016051317,
                    "centroide_lon": -64.3070593086884,
                    "id": "14147",
                    "nombre": "Santa María",
                    "provincia_id": "14",
                    "provincia_nombre": "Córdoba"
                },
                {
                    "centroide_lat": -29.7654579620613,
                    "centroide_lon": -64.1428878947488,
                    "id": "14154",
                    "nombre": "Sobremonte",
                    "provincia_id": "14",
                    "provincia_nombre": "Córdoba"
                },
                {
                    "centroide_lat": -32.2877127172928,
                    "centroide_lon": -63.7792479671775,
                    "id": "14161",
                    "nombre": "Tercero Arriba",
                    "provincia_id": "14",
                    "provincia_nombre": "Córdoba"
                },
                {
                    "centroide_lat": -30.7261313372803,
                    "centroide_lon": -63.9842524222316,
                    "id": "14168",
                    "nombre": "Totoral",
                    "provincia_id": "14",
                    "provincia_nombre": "Córdoba"
                },
                {
                    "centroide_lat": -30.2222689247998,
                    "centroide_lon": -63.8118051923902,
                    "id": "14175",
                    "nombre": "Tulumba",
                    "provincia_id": "14",
                    "provincia_nombre": "Córdoba"
                },
                {
                    "centroide_lat": -32.8784545187661,
                    "centroide_lon": -62.7914258058015,
                    "id": "14182",
                    "nombre": "Unión",
                    "provincia_id": "14",
                    "provincia_nombre": "Córdoba"
                }
            ],
            "inicio": 0,
            "parametros": {
                "aplanar": true,
                "campos": [
                    "centroide.lon",
                    "id",
                    "provincia.nombre",
                    "nombre",
                    "provincia.id",
                    "centroide.lat"
                ],
                "exacto": true,
                "max": 1000,
                "orden": "nombre",
                "provincia": "Cordoba"
            },
            "total": 26
        },
        "Corrientes": {
            "cantidad": 25,
            "departamentos": [
                {
                    "centroide_lat": -28.4973936042369,
                    "centroide_lon": -58.930436271179,
                    "id": "18007",
                    "nombre": "Bella Vista",
                    "provincia_id": "18",
                    "provincia_nombre": "Corrientes"
                },
                {
                    "centroide_lat": -27.4779720010057,
                    "centroide_lon": -57.6113792118725,
                    "id": "18014",
                    "nombre": "Berón de Astrada",
                    "provincia_id": "18",
                    "provincia_nombre": "Corrientes"
                },
                {
                    "centroide_lat": -27.522187514513,
                    "centroide_lon": -58.7627061875969,
                    "id": "18021",
                    "nombre": "Capital",
                    "provincia_id": "18",
                    "provincia_nombre": "Corrientes"
                },
                {
                    "centroide_lat": -28.4083953496766,
                    "centroide_lon": -58.031384641798,
                    "id": "18028",
                    "nombre": "Concepción",
                    "provincia_id": "18",
                    "provincia_nombre": "Corrientes"
                },
                {
                    "centroide_lat": -29.6955178131115,
                    "centroide_lon": -58.3248439252656,
                    "id": "18035",
                    "nombre": "Curuzu Cuatia",
                    "provincia_id": "18",
                    "provincia_nombre": "Corrientes"
                },
                {
                    "centroide_lat": -27.8961218833917,
                    "centroide_lon": -58.6658439667722,
                    "id": "18042",
                    "nombre": "Empedrado",
                    "provincia_id": "18",
                    "provincia_nombre": "Corrientes"
                },
                {
                    "centroide_lat": -29.9854770547953,
                    "centroide_lon": -59.2414216570581,
                    "id": "18049",
                    "nombre": "Esquina",
                    "provincia_id": "18",
                    "provincia_nombre": "Corrientes"
                },
                {
                    "centroide_lat": -28.7751848033313,
                    "centroide_lon": -56.5115297991712,
                    "id": "18056",
                    "nombre": "General Alvear",
                    "provincia_id": "18",
                    "provincia_nombre": "Corrientes"
                },
                {
                    "centroide_lat": -27.7199243812297,
                    "centroide_lon": -57.7876196199145,
                    "id": "18063",
                    "nombre": "General Paz",
                    "provincia_id": "18",
                    "provincia_nombre": "Corrientes"
                },
                {
                    "centroide_lat": -29.4514531616824,
                    "centroide_lon": -59.255912536825,
                    "id": "18070",
                    "nombre": "Goya",
                    "provincia_id": "18",
                    "provincia_nombre": "Corrientes"
                },
                {
                    "centroide_lat": -27.3460562357383,
                    "centroide_lon": -58.0713754415461,
                    "id": "18077",
                    "nombre": "Itatí",
                    "provincia_id": "18",
                    "provincia_nombre": "Corrientes"
                },
                {
                    "centroide_lat": -27.9114257175706,
                    "centroide_lon": -56.7904763823004,
                    "id": "18084",
                    "nombre": "Ituzaingó",
                    "provincia_id": "18",
                    "provincia_nombre": "Corrientes"
                },
                {
                    "centroide_lat": -28.9879963080686,
                    "centroide_lon": -58.9337155943843,
                    "id": "18091",
                    "nombre": "Lavalle",
                    "provincia_id": "18",
                    "provincia_nombre": "Corrientes"
                },
                {
                    "centroide_lat": -28.0163816801467,
                    "centroide_lon": -58.1855624499057,
                    "id": "18098",
                    "nombre": "Mburucuyá",
                    "provincia_id": "18",
                    "provincia_nombre": "Corrientes"
                },
                {
                    "centroide_lat": -29.0645100901984,
                    "centroide_lon": -57.818389954722,
                    "id": "18105",
                    "nombre": "Mercedes",
                    "provincia_id": "18",
                    "provincia_nombre": "Corrientes"
                },
                {
                    "centroide_lat": -30.2289552221138,
                    "centroide_lon": -57.8702855877153,
                    "id": "18112",
                    "nombre": "Monte Caseros",
                    "provincia_id": "18",
                    "provincia_nombre": "Corrientes"
                },
                {
                    "centroide_lat": -29.5936355856024,
                    "centroide_lon": -57.2996337303242,
                    "id": "18119",
                    "nombre": "Paso de los Libres",
                    "provincia_id": "18",
                    "provincia_nombre": "Corrientes"
                },
                {
                    "centroide_lat": -28.2124729464641,
                    "centroide_lon": -58.6199065693295,
                    "id": "18126",
                    "nombre": "Saladas",
                    "provincia_id": "18",
                    "provincia_nombre": "Corrientes"
                },
                {
                    "centroide_lat": -27.3823055047941,
                    "centroide_lon": -58.5174860021794,
                    "id": "18133",
                    "nombre": "San Cosme",
                    "provincia_id": "18",
                    "provincia_nombre": "Corrientes"
                },
                {
                    "centroide_lat": -27.6020473964888,
                    "centroide_lon": -58.2685422687085,
                    "id": "18140",
                    "nombre": "San Luis del Palmar",
                    "provincia_id": "18",
                    "provincia_nombre": "Corrientes"
                },
                {
                    "centroide_lat": -28.8289705275493,
                    "centroide_lon": -56.9315923506787,
                    "id": "18147",
                    "nombre": "San Martín",
                    "provincia_id": "18",
                    "provincia_nombre": "Corrientes"
                },
                {
                    "centroide_lat": -27.8758228176186,
                    "centroide_lon": -57.409985810344,
                    "id": "18154",
                    "nombre": "San Miguel",
                    "provincia_id": "18",
                    "provincia_nombre": "Corrientes"
                },
                {
                    "centroide_lat": -28.7057979959044,
                    "centroide_lon": -58.6130197699847,
                    "id": "18161",
                    "nombre": "San Roque",
                    "provincia_id": "18",
                    "provincia_nombre": "Corrientes"
                },
                {
                    "centroide_lat": -28.2311093523606,
                    "centroide_lon": -56.222206072693,
                    "id": "18168",
                    "nombre": "Santo Tomé",
                    "provincia_id": "18",
                    "provincia_nombre": "Corrientes"
                },
                {
                    "centroide_lat": -29.9995445616697,
                    "centroide_lon": -58.7950373826119,
                    "id": "18175",
                    "nombre": "Sauce",
                    "provincia_id": "18",
                    "provincia_nombre": "Corrientes"
                }
            ],
            "inicio": 0,
            "parametros": {
                "aplanar": true,
                "campos": [
                    "centroide.lon",
                    "id",
                    "provincia.nombre",
                    "nombre",
                    "provincia.id",
                    "centroide.lat"
                ],
                "exacto": true,
                "max": 1000,
                "orden": "nombre",
                "provincia": "Corrientes"
            },
            "total": 25
        },
        "Entre Rios": {
            "cantidad": 17,
            "departamentos": [
                {
                    "centroide_lat": -32.0114827529012,
                    "centroide_lon": -58.3699129592754,
                    "id": "30008",
                    "nombre": "Colón",
                    "provincia_id": "30",
                    "provincia_nombre": "Entre Ríos"
                },
                {
                    "centroide_lat": -31.2902983723403,
                    "centroide_lon": -58.237869689912,
                    "id": "30015",
                    "nombre": "Concordia",
                    "provincia_id": "30",
                    "provincia_nombre": "Entre Ríos"
                },
                {
                    "centroide_lat": -32.228040548998,
                    "centroide_lon": -60.5239335894137,
                    "id": "30021",
                    "nombre": "Diamante",
                    "provincia_id": "30",
                    "provincia_nombre": "Entre Ríos"
                },
                {
                    "centroide_lat": -30.7348931499453,
                    "centroide_lon": -58.1591541174073,
                    "id": "30028",
                    "nombre": "Federación",
                    "provincia_id": "30",
                    "provincia_nombre": "Entre Ríos"
                },
                {
                    "centroide_lat": -30.9924267797136,
                    "centroide_lon": -58.8918600477837,
                    "id": "30035",
                    "nombre": "Federal",
                    "provincia_id": "30",
                    "provincia_nombre": "Entre Ríos"
                },
                {
                    "centroide_lat": -30.4139444642315,
                    "centroide_lon": -58.7287958918597,
                    "id": "30042",
                    "nombre": "Feliciano",
                    "provincia_id": "30",
                    "provincia_nombre": "Entre Ríos"
                },
                {
                    "centroide_lat": -33.1199026931696,
                    "centroide_lon": -59.6016234890441,
                    "id": "30049",
                    "nombre": "Gualeguay",
                    "provincia_id": "30",
                    "provincia_nombre": "Entre Ríos"
                },
                {
                    "centroide_lat": -33.0223492433906,
                    "centroide_lon": -58.7857904865089,
                    "id": "30056",
                    "nombre": "Gualeguaychú",
                    "provincia_id": "30",
                    "provincia_nombre": "Entre Ríos"
                },
                {
                    "centroide_lat": -33.6241288152628,
                    "centroide_lon": -58.9351580556436,
                    "id": "30063",
                    "nombre": "Islas del Ibicuy",
                    "provincia_id": "30",
                    "provincia_nombre": "Entre Ríos"
                },
                {
                    "centroide_lat": -30.8974563498339,
                    "centroide_lon": -59.5004488104579,
                    "id": "30070",
                    "nombre": "La Paz",
                    "provincia_id": "30",
                    "provincia_nombre": "Entre Ríos"
                },
                {
                    "centroide_lat": -32.2187123475252,
                    "centroide_lon": -59.7697019155424,
                    "id": "30077",
                    "nombre": "Nogoyá",
                    "provincia_id": "30",
                    "provincia_nombre": "Entre Ríos"
                },
                {
                    "centroide_lat": -31.6952294494435,
                    "centroide_lon": -60.041174481445,
                    "id": "30084",
                    "nombre": "Paraná",
                    "provincia_id": "30",
                    "provincia_nombre": "Entre Ríos"
                },
                {
                    "centroide_lat": -31.5768835387468,
                    "centroide_lon": -58.4863728567996,
                    "id": "30088",
                    "nombre": "San Salvador",
                    "provincia_id": "30",
                    "provincia_nombre": "Entre Ríos"
                },
                {
                    "centroide_lat": -32.3174117217417,
                    "centroide_lon": -59.2672864855269,
                    "id": "30091",
                    "nombre": "Tala",
                    "provincia_id": "30",
                    "provincia_nombre": "Entre Ríos"
                },
                {
                    "centroide_lat": -32.4499666887673,
                    "centroide_lon": -58.5822661421638,
                    "id": "30098",
                    "nombre": "Uruguay",
                    "provincia_id": "30",
                    "provincia_nombre": "Entre Ríos"
                },
                {
                    "centroide_lat": -32.7839424597327,
                    "centroide_lon": -60.2180700309804,
                    "id": "30105",
                    "nombre": "Victoria",
                    "provincia_id": "30",
                    "provincia_nombre": "Entre Ríos"
                },
                {
                    "centroide_lat": -31.6477388963494,
                    "centroide_lon": -59.0594708104081,
                    "id": "30113",
                    "nombre": "Villaguay",
                    "provincia_id": "30",
                    "provincia_nombre": "Entre Ríos"
                }
            ],
            "inicio": 0,
            "parametros": {
                "aplanar": true,
                "campos": [
                    "centroide.lon",
                    "id",
                    "provincia.nombre",
                    "nombre",
                    "provincia.id",
                    "centroide.lat"
                ],
                "exacto": true,
                "max": 1000,
                "orden": "nombre",
                "provincia": "Entre Rios"
            },
            "total": 17
        },
        "Formosa": {
            "cantidad": 9,
            "departamentos": [
                {
                    "centroide_lat": -24.0255563345755,
                    "centroide_lon": -61.2828019983788,
                    "id": "34007",
                    "nombre": "Bermejo",
                    "provincia_id": "34",
                    "provincia_nombre": "Formosa"
                },
                {
                    "centroide_lat": -25.9396352318956,
                    "centroide_lon": -58.3773174492554,
                    "id": "34014",
                    "nombre": "Formosa",
                    "provincia_id": "34",
                    "provincia_nombre": "Formosa"
                },
                {
                    "centroide_lat": -26.467587999102,
                    "centroide_lon": -58.5654369092882,
                    "id": "34021",
                    "nombre": "Laishí",
                    "provincia_id": "34",
                    "provincia_nombre": "Formosa"
                },
                {
                    "centroide_lat": -23.854855944809,
                    "centroide_lon": -62.076891256733,
                    "id": "34028",
                    "nombre": "Matacos",
                    "provincia_id": "34",
                    "provincia_nombre": "Formosa"
                },
                {
                    "centroide_lat": -24.8750609917942,
                    "centroide_lon": -59.9585024741836,
                    "id": "34035",
                    "nombre": "Patiño",
                    "provincia_id": "34",
                    "provincia_nombre": "Formosa"
                },
                {
                    "centroide_lat": -25.1053773070169,
                    "centroide_lon": -58.6616277482245,
                    "id": "34042",
                    "nombre": "Pilagás",
                    "provincia_id": "34",
                    "provincia_nombre": "Formosa"
                },
                {
                    "centroide_lat": -25.3700377167627,
                    "centroide_lon": -58.062606265553,
                    "id": "34049",
                    "nombre": "Pilcomayo",
                    "provincia_id": "34",
                    "provincia_nombre": "Formosa"
                },
                {
                    "centroide_lat": -25.7672893097833,
                    "centroide_lon": -59.1592573575224,
                    "id": "34056",
                    "nombre": "Pirané",
                    "provincia_id": "34",
                    "provincia_nombre": "Formosa"
                },
                {
                    "centroide_lat": -23.1201560396969,
                    "centroide_lon": -62.1382049441497,
                    "id": "34063",
                    "nombre": "Ramón Lista",
                    "provincia_id": "34",
                    "provincia_nombre": "Formosa"
                }
            ],
            "inicio": 0,
            "parametros": {
                "aplanar": true,
                "campos": [
                    "centroide.lon",
                    "id",
                    "provincia.nombre",
                    "nombre",
                    "provincia.id",
                    "centroide.lat"
                ],
                "exacto": true,
                "max": 1000,
                "orden": "nombre",
                "provincia": "Formosa"
            },
            "total": 9
        },
        "Jujuy": {
            "cantidad": 16,
            "departamentos": [
                {
                    "centroide_lat": -22.9392350234639,
                    "centroide_lon": -65.9346878202021,
                    "id": "38007",
                    "nombre": "Cochinoca",
                    "provincia_id": "38",
                    "provincia_nombre": "Jujuy"
                },
                {
                    "centroide_lat": -24.0893413107767,
                    "centroide_lon": -65.4484768876505,
                    "id": "38021",
                    "nombre": "Dr. Manuel Belgrano",
                    "provincia_id": "38",
                    "provincia_nombre": "Jujuy"
                },
                {
                    "centroide_lat": -24.447823040536,
                    "centroide_lon": -65.1011266142907,
                    "id": "38014",
                    "nombre": "El Carmen",
                    "provincia_id": "38",
                    "provincia_nombre": "Jujuy"
                },
                {
                    "centroide_lat": -23.0821382910047,
                    "centroide_lon": -65.4089124214828,
                    "id": "38028",
                    "nombre": "Humahuaca",
                    "provincia_id": "38",
                    "provincia_nombre": "Jujuy"
                },
                {
                    "centroide_lat": -23.7855349092159,
                    "centroide_lon": -64.8287565421131,
                    "id": "38035",
                    "nombre": "Ledesma",
                    "provincia_id": "38",
                    "provincia_nombre": "Jujuy"
                },
                {
                    "centroide_lat": -24.1949225444459,
                    "centroide_lon": -65.1264498289923,
                    "id": "38042",
                    "nombre": "Palpalá",
                    "provincia_id": "38",
                    "provincia_nombre": "Jujuy"
                },
                {
                    "centroide_lat": -22.6216157957901,
                    "centroide_lon": -66.5415733150047,
                    "id": "38049",
                    "nombre": "Rinconada",
                    "provincia_id": "38",
                    "provincia_nombre": "Jujuy"
                },
                {
                    "centroide_lat": -24.3467258804414,
                    "centroide_lon": -65.4468528811404,
                    "id": "38056",
                    "nombre": "San Antonio",
                    "provincia_id": "38",
                    "provincia_nombre": "Jujuy"
                },